[{"Location":"Airport Street","Latitude":24.2577139,"Longitude":55.6334536,"Rent_per_sqft":47.1310680293},{"Location":"Al Aman","Latitude":24.4319904,"Longitude":54.4265503,"Rent_per_sqft":45.2612095232},{"Location":"Al Bahia","Latitude":24.5140484,"Longitude":54.6630821454,"Rent_per_sqft":30.3956649422},{"Location":"Al Bateen","Latitude":24.2048941,"Longitude":55.6196612,"Rent_per_sqft":72.2062304958},{"Location":"Al Bateen","Latitude":24.45138385,"Longitude":54.3379658189,"Rent_per_sqft":72.803270834},{"Location":"Al Danah","Latitude":24.48528875,"Longitude":54.3698880646,"Rent_per_sqft":59.9953233059},{"Location":"Al Dhafrah","Latitude":24.01241265,"Longitude":52.9213011669,"Rent_per_sqft":73.6842105263},{"Location":"Al Falah City","Latitude":24.4382768,"Longitude":54.7311085809,"Rent_per_sqft":30.5492793624},{"Location":"Al Falah Street","Latitude":24.280096,"Longitude":55.766997,"Rent_per_sqft":51.9176006662},{"Location":"Al Falah Street","Latitude":24.2801159,"Longitude":55.7670807,"Rent_per_sqft":49.2202170199},{"Location":"Al Falah Street","Latitude":24.2833156,"Longitude":55.7651102,"Rent_per_sqft":44.8412344088},{"Location":"Al Ghadeer","Latitude":24.84326945,"Longitude":55.027589616,"Rent_per_sqft":69.8764748151},{"Location":"Al Hosn","Latitude":24.47311215,"Longitude":54.3633012977,"Rent_per_sqft":59.1982862599},{"Location":"Al Jubail Island","Latitude":24.53170985,"Longitude":54.4861564971,"Rent_per_sqft":116.039287084},{"Location":"Al Karamah","Latitude":24.4653001,"Longitude":54.371509,"Rent_per_sqft":48.4267053709},{"Location":"Al Khalidiyah","Latitude":24.46934445,"Longitude":54.348805935,"Rent_per_sqft":55.3331434447},{"Location":"Al Khubeirah","Latitude":24.4642948,"Longitude":54.3298492228,"Rent_per_sqft":66.135464028},{"Location":"Al Manhal","Latitude":24.4623693,"Longitude":54.3694159927,"Rent_per_sqft":39.6743499475},{"Location":"Al Maqtaa","Latitude":24.4345654,"Longitude":54.4543861,"Rent_per_sqft":74.412789274},{"Location":"Al Markaziya","Latitude":24.4910482,"Longitude":54.3602411,"Rent_per_sqft":76.4862677781},{"Location":"Al Maryah Island","Latitude":24.50298045,"Longitude":54.3899732032,"Rent_per_sqft":100.0011239541},{"Location":"Al Matar","Latitude":24.4352701,"Longitude":54.4406788,"Rent_per_sqft":76.061084162},{"Location":"Al Mina","Latitude":24.4889401,"Longitude":54.6006293929,"Rent_per_sqft":54.9218002916},{"Location":"Al Muntazah","Latitude":24.43014945,"Longitude":54.455555143,"Rent_per_sqft":41.914829309},{"Location":"Al Muroor","Latitude":24.470365,"Longitude":54.3787778,"Rent_per_sqft":48.3836030879},{"Location":"Al Muroor","Latitude":24.4725056,"Longitude":54.376269,"Rent_per_sqft":47.3025672451},{"Location":"Al Muroor","Latitude":24.476252,"Longitude":54.3726749,"Rent_per_sqft":50.2790135505},{"Location":"Al Mushrif","Latitude":24.44108515,"Longitude":54.3842182212,"Rent_per_sqft":49.399838946},{"Location":"Al Nahda","Latitude":24.2657455,"Longitude":54.7083948,"Rent_per_sqft":35.7142857143},{"Location":"Al Nahyan","Latitude":24.46446185,"Longitude":54.3868388847,"Rent_per_sqft":51.4305187832},{"Location":"Al Najda Street","Latitude":24.4913003,"Longitude":54.3695437,"Rent_per_sqft":58.057219957},{"Location":"Al Nasr Street","Latitude":24.5005028,"Longitude":54.3782872,"Rent_per_sqft":49.4744423886},{"Location":"Al Qurm","Latitude":24.4206174,"Longitude":54.3970544071,"Rent_per_sqft":77.3841488961},{"Location":"Al Raha Beach","Latitude":24.48593095,"Longitude":54.60093933,"Rent_per_sqft":76.6896871787},{"Location":"Al Raha Gardens","Latitude":24.42772055,"Longitude":54.5516886799,"Rent_per_sqft":52.0739514047},{"Location":"Al Raha Gardens","Latitude":24.43839295,"Longitude":54.5882868285,"Rent_per_sqft":53.8045092447},{"Location":"Al Rahba","Latitude":24.6030114,"Longitude":54.6947478,"Rent_per_sqft":26.5486617557},{"Location":"Al Ras Al Akhdar","Latitude":24.46213075,"Longitude":54.3101906678,"Rent_per_sqft":53.8244675945},{"Location":"Al Rawdah","Latitude":24.41796585,"Longitude":54.4478771686,"Rent_per_sqft":59.2325747993},{"Location":"Al Reef","Latitude":24.4664366,"Longitude":54.6568914278,"Rent_per_sqft":50.2389419766},{"Location":"Al Reem Island","Latitude":24.4935984,"Longitude":54.407840509,"Rent_per_sqft":77.7255714651},{"Location":"Al Salam Street","Latitude":24.424684,"Longitude":54.4809515,"Rent_per_sqft":51.3600766124},{"Location":"Al Salam Street","Latitude":24.4727988,"Longitude":54.3917598,"Rent_per_sqft":58.9620836717},{"Location":"Al Samha","Latitude":24.6774379,"Longitude":54.7531126,"Rent_per_sqft":35.6111198311},{"Location":"Al Shahama","Latitude":24.5630005,"Longitude":54.6799019369,"Rent_per_sqft":30.1468624549},{"Location":"Al Shamkha","Latitude":24.3866584,"Longitude":54.7074507,"Rent_per_sqft":31.8847261604},{"Location":"Al Shawamekh","Latitude":24.34873545,"Longitude":54.6628017904,"Rent_per_sqft":25.8563414542},{"Location":"Al Shawamekh","Latitude":24.3539594,"Longitude":54.6545747148,"Rent_per_sqft":33.941710095},{"Location":"Al Wahdah","Latitude":24.4651138,"Longitude":54.3790331,"Rent_per_sqft":42.1760914055},{"Location":"Al Wahdah","Latitude":24.4667302,"Longitude":54.3782761,"Rent_per_sqft":33.966921963},{"Location":"Al Wathba","Latitude":24.2219216,"Longitude":54.7036609,"Rent_per_sqft":33.5416666667},{"Location":"Al Zaab","Latitude":24.4669334,"Longitude":54.3606233586,"Rent_per_sqft":32.3448177275},{"Location":"Al Zahiyah","Latitude":24.49648005,"Longitude":54.3794798167,"Rent_per_sqft":65.7519986505},{"Location":"Al Zahraa","Latitude":24.4391653,"Longitude":54.435218,"Rent_per_sqft":95.3739592339},{"Location":"Baniyas","Latitude":24.488919,"Longitude":54.3625614,"Rent_per_sqft":44.7568389832},{"Location":"Between Two Bridges (Bain Al Jessrain)","Latitude":24.4073751,"Longitude":54.506637,"Rent_per_sqft":42.643006831},{"Location":"Capital Centre","Latitude":24.4191359,"Longitude":54.4400422,"Rent_per_sqft":72.9994605483},{"Location":"Corniche Area","Latitude":24.484107,"Longitude":54.35067,"Rent_per_sqft":70.5093666332},{"Location":"Corniche Road","Latitude":24.4767804,"Longitude":54.3205997,"Rent_per_sqft":83.1459786675},{"Location":"Danet Abu Dhabi","Latitude":24.42934995,"Longitude":54.4361938736,"Rent_per_sqft":60.231993155},{"Location":"Defence Street","Latitude":24.4750779,"Longitude":54.3776902,"Rent_per_sqft":42.8194033886},{"Location":"Defence Street","Latitude":24.4756453,"Longitude":54.3781673,"Rent_per_sqft":43.5023668088},{"Location":"Electra Street","Latitude":24.4650344,"Longitude":54.337592,"Rent_per_sqft":52.5886078434},{"Location":"Electra Street","Latitude":24.4849713,"Longitude":54.3619673,"Rent_per_sqft":52.4882673991},{"Location":"Electra Street","Latitude":24.4946381,"Longitude":54.3753478,"Rent_per_sqft":54.5194580028},{"Location":"Hamdan Street","Latitude":24.2425603,"Longitude":55.7121184,"Rent_per_sqft":52.4558146335},{"Location":"Hamdan Street","Latitude":24.2479318,"Longitude":55.717251,"Rent_per_sqft":52.7056469058},{"Location":"Hydra Village","Latitude":24.5463942,"Longitude":54.7019722693,"Rent_per_sqft":35.3181322297},{"Location":"KIZAD","Latitude":24.6882575,"Longitude":54.7360933303,"Rent_per_sqft":25.8458646617},{"Location":"Khalifa City","Latitude":24.4201314,"Longitude":54.5749535259,"Rent_per_sqft":42.7431018409},{"Location":"Liwa Street","Latitude":24.2271009,"Longitude":55.6616335,"Rent_per_sqft":51.9191919192},{"Location":"Liwa Street","Latitude":24.237386,"Longitude":55.6672927,"Rent_per_sqft":23.0769230769},{"Location":"Madinat Al Riyadh","Latitude":24.353232,"Longitude":54.749892,"Rent_per_sqft":27.6134995581},{"Location":"Madinat Zayed","Latitude":23.6520354,"Longitude":53.7046617018,"Rent_per_sqft":47.4664558251},{"Location":"Masdar City","Latitude":24.42748265,"Longitude":54.6234876171,"Rent_per_sqft":80.6224490535},{"Location":"Mohammed Bin Zayed City","Latitude":24.3339589,"Longitude":54.5535564,"Rent_per_sqft":38.6773790126},{"Location":"Mussafah","Latitude":24.373808,"Longitude":54.4879389,"Rent_per_sqft":47.2726771784},{"Location":"Muwaylih","Latitude":24.6270514,"Longitude":54.8012366466,"Rent_per_sqft":21.3333333333},{"Location":"Rabdan","Latitude":24.4054839,"Longitude":54.5057730766,"Rent_per_sqft":51.7921523049},{"Location":"Rawdhat Abu Dhabi","Latitude":24.4200646,"Longitude":54.4628768,"Rent_per_sqft":59.8410247473},{"Location":"Saadiyat Island","Latitude":24.54597235,"Longitude":54.4436880312,"Rent_per_sqft":96.9798631673},{"Location":"Sas Al Nakhl Village","Latitude":24.406619,"Longitude":54.526595,"Rent_per_sqft":53.1106017719},{"Location":"Shakhbout City","Latitude":24.3594999,"Longitude":54.6323343546,"Rent_per_sqft":35.5791818797},{"Location":"Sheikh Khalifa Bin Zayed Street","Latitude":24.514535,"Longitude":54.3895051,"Rent_per_sqft":52.8647562189},{"Location":"Sheikh Rashid Bin Saeed Street","Latitude":24.4181502,"Longitude":54.4954577,"Rent_per_sqft":54.2181179992},{"Location":"The Marina","Latitude":24.479853,"Longitude":54.319951,"Rent_per_sqft":135.6369040402},{"Location":"Tourist Club Area (TCA)","Latitude":24.495946,"Longitude":54.381815,"Rent_per_sqft":58.8351460933},{"Location":"Yas Island","Latitude":24.48640395,"Longitude":54.6090712087,"Rent_per_sqft":98.0364826156},{"Location":"Yas Island","Latitude":24.4940223,"Longitude":54.6073721,"Rent_per_sqft":97.0343275397},{"Location":"Zayed City","Latitude":23.6515354,"Longitude":53.7019687,"Rent_per_sqft":48.9600780246},{"Location":"Zayed City","Latitude":24.36917605,"Longitude":54.5905917936,"Rent_per_sqft":27.3934963672},{"Location":"Zayed Sports City","Latitude":24.4177935,"Longitude":54.447876,"Rent_per_sqft":73.5746069063}]