[{"Location":"Abu Samrah","Latitude":24.20075245,"Longitude":55.3929677317,"Rent_per_sqft":17.4187096774},{"Location":"Al Bateen","Latitude":24.2099291,"Longitude":55.6203070605,"Rent_per_sqft":30.0036630037},{"Location":"Al Dhahir","Latitude":24.0895366,"Longitude":55.85042264,"Rent_per_sqft":36.8321078431},{"Location":"Al Fou'ah","Latitude":24.342739,"Longitude":55.8079989,"Rent_per_sqft":30.3571428571},{"Location":"Al Hayer","Latitude":25.2342586,"Longitude":51.4555917,"Rent_per_sqft":26.9230769231},{"Location":"Al Iqabiyyah","Latitude":24.17558995,"Longitude":55.6809633908,"Rent_per_sqft":22.1981947534},{"Location":"Al Jahili","Latitude":24.21208845,"Longitude":55.7531499519,"Rent_per_sqft":26.5859677609},{"Location":"Al Jimi","Latitude":24.2509558,"Longitude":55.7355308,"Rent_per_sqft":23.5365080057},{"Location":"Al Khibeesi","Latitude":24.22982055,"Longitude":55.6990030682,"Rent_per_sqft":26.4061805764},{"Location":"Al Maqam","Latitude":24.1858111,"Longitude":55.6294236066,"Rent_per_sqft":20.9345238095},{"Location":"Al Marakhaniya","Latitude":24.2242757,"Longitude":55.6718538,"Rent_per_sqft":26.8968497223},{"Location":"Al Masoudi","Latitude":24.32483245,"Longitude":55.7597752169,"Rent_per_sqft":27.8571428571},{"Location":"Al Mutarad","Latitude":24.2248697,"Longitude":55.7452211,"Rent_per_sqft":27.2978042877},{"Location":"Al Mutaw'ah","Latitude":24.20987115,"Longitude":55.7625672641,"Rent_per_sqft":31.0027589853},{"Location":"Al Muwaiji","Latitude":24.2114301,"Longitude":55.70755,"Rent_per_sqft":24.2663866423},{"Location":"Al Qattara","Latitude":24.2682879,"Longitude":55.7515345,"Rent_per_sqft":22.502250225},{"Location":"Al Rawdah","Latitude":24.1045713,"Longitude":55.5028864,"Rent_per_sqft":24.0},{"Location":"Al Rawdah Al Sharqiyah","Latitude":24.1484037,"Longitude":55.6553373195,"Rent_per_sqft":24.210539713},{"Location":"Al Sarouj","Latitude":24.1983609,"Longitude":55.7979464714,"Rent_per_sqft":24.7514233545},{"Location":"Al Sidrah","Latitude":24.2203497,"Longitude":55.6924486,"Rent_per_sqft":24.7704962734},{"Location":"Al Sidrah","Latitude":24.2203798,"Longitude":55.6920182,"Rent_per_sqft":20.7151211362},{"Location":"Al Tiwayya","Latitude":24.2512439,"Longitude":55.6965439589,"Rent_per_sqft":28.4508088236},{"Location":"Al Yahar","Latitude":24.21243765,"Longitude":55.5357457527,"Rent_per_sqft":20.0725073201},{"Location":"Al Yahar","Latitude":24.2192847,"Longitude":55.5362025695,"Rent_per_sqft":32.9047619048},{"Location":"Asharij","Latitude":24.2009285,"Longitude":55.671463245,"Rent_per_sqft":24.937912529},{"Location":"Central District","Latitude":24.2232499,"Longitude":55.7717514,"Rent_per_sqft":26.444022129},{"Location":"Falaj Hazzaa","Latitude":24.187924,"Longitude":55.7197273,"Rent_per_sqft":31.4896872994},{"Location":"Ghnaymah","Latitude":24.1456246,"Longitude":55.6241410425,"Rent_per_sqft":9.4444444444},{"Location":"Hili","Latitude":24.3044346,"Longitude":55.7751173303,"Rent_per_sqft":27.6868194526},{"Location":"Neima","Latitude":24.11034005,"Longitude":55.7017632355,"Rent_per_sqft":25.9311594203},{"Location":"Neima","Latitude":24.1846966,"Longitude":55.6275241,"Rent_per_sqft":50.0694444444},{"Location":"Shiab Al Ashkhar","Latitude":24.1555565,"Longitude":55.7278806,"Rent_per_sqft":30.2638745727},{"Location":"Um Ghafah","Latitude":24.0931064,"Longitude":55.9071320609,"Rent_per_sqft":2.9972425369},{"Location":"Zakhir","Latitude":24.12804145,"Longitude":55.6801690227,"Rent_per_sqft":24.3152270697}]